[{"time":"07:00","day":0,"name":"Sunlight of the Spirit","location":"Phone","types":["O","D"],"location_notes":"Dial (605) 313-5932 x400575","contact_1_email":"Ginny F","contact_1_phone":"215-593-9169","conference_phone":"(605) 313-5932 x400569","slug":"Sunlight-of-the-Spirit-Sun","edit_url":"https:\/\/docs.google.com\/spreadsheets\/d\/1LzVrSE-t-iYMnSmiZtg8449rctjJ8Xn9l-nz9_t4H6k\/edit#gid=0&range=2:2"},{"time":"08:30","day":0,"name":"Morning Serenity Group","location":"Triangle Stepping Stones","address":"3279 Lake Powell Rd, Williamsburg, VA 23185, USA","region":"Williamsburg","types":["O","D"],"timezone":"Amweica\/New_York","slug":"Morning-Serenity-Group-Sun","edit_url":"https:\/\/docs.google.com\/spreadsheets\/d\/1LzVrSE-t-iYMnSmiZtg8449rctjJ8Xn9l-nz9_t4H6k\/edit#gid=0&range=3:3"},{"time":"10:00","day":0,"name":"Easy Does It","location":"First Colony Clubhouse","address":"109-115, Pasbehegh Dr, Williamsburg, VA 23185, USA","region":"Williamsburg","types":["O","D"],"timezone":"Amweica\/New_York","slug":"Easy-Does-It","edit_url":"https:\/\/docs.google.com\/spreadsheets\/d\/1LzVrSE-t-iYMnSmiZtg8449rctjJ8Xn9l-nz9_t4H6k\/edit#gid=0&range=4:4"},{"time":"14:30","day":0,"name":"Room To Spare","location":"Triangle Stepping Stones","address":"3279 Lake Powell Rd, Williamsburg, VA 23185, USA","region":"Williamsburg","types":["SP"],"timezone":"Amweica\/New_York","slug":"Room-To-Spare","edit_url":"https:\/\/docs.google.com\/spreadsheets\/d\/1LzVrSE-t-iYMnSmiZtg8449rctjJ8Xn9l-nz9_t4H6k\/edit#gid=0&range=5:5"},{"time":"18:30","day":0,"name":"Sometimes Slowly","location":"Triangle Stepping Stones","address":"3279 Lake Powell Rd, Williamsburg, VA 23185, USA","region":"Williamsburg","types":["C","B"],"timezone":"Amweica\/New_York","slug":"Sometimes-Slowly","edit_url":"https:\/\/docs.google.com\/spreadsheets\/d\/1LzVrSE-t-iYMnSmiZtg8449rctjJ8Xn9l-nz9_t4H6k\/edit#gid=0&range=6:6"},{"time":"18:30","day":0,"name":"Norge Serenity Group","location":"Our Saviour\u201a\u00c4\u00f4s Lutheran Church","address":"7479 Richmond Rd, Williamsburg, VA 23188, USA","region":"Williamsburg","types":["O","D"],"timezone":"Amweica\/New_York","conference_url":"https:\/\/us02web.zoom.us\/j\/88318429205?pwd=WkpRSjQ2Zm9oUXl6N1lGaWh1YjdaUT09","slug":"Norge-Serenity-Group-Sun","edit_url":"https:\/\/docs.google.com\/spreadsheets\/d\/1LzVrSE-t-iYMnSmiZtg8449rctjJ8Xn9l-nz9_t4H6k\/edit#gid=0&range=7:7"},{"time":"20:00","day":0,"name":"AA 101 We Are Not Saints","location":"Triangle Stepping Stones","address":"3279 Lake Powell Rd, Williamsburg, VA 23185, USA","region":"Williamsburg","types":["BE","B"],"timezone":"Amweica\/New_York","slug":"AA-101-We-Are-Not-Saints","edit_url":"https:\/\/docs.google.com\/spreadsheets\/d\/1LzVrSE-t-iYMnSmiZtg8449rctjJ8Xn9l-nz9_t4H6k\/edit#gid=0&range=8:8"},{"time":"20:00","day":0,"name":"Primary Purpose","location":"Eastern State","address":"4601 Ironbound Rd, Williamsburg, VA 23188, USA","region":"Williamsburg","types":["O","D"],"timezone":"Amweica\/New_York","slug":"Primary-Purpose-Sun","edit_url":"https:\/\/docs.google.com\/spreadsheets\/d\/1LzVrSE-t-iYMnSmiZtg8449rctjJ8Xn9l-nz9_t4H6k\/edit#gid=0&range=9:9"},{"time":"07:00","day":1,"name":"Prayer & Meditation","location":"Bruton Parish Offices (2nd Floor)","address":"201 W Duke of Gloucester St, Williamsburg, VA 23185, USA","region":"Williamsburg","types":["O","D"],"timezone":"Amweica\/New_York","slug":"Prayer-and-Meditation-Mon","edit_url":"https:\/\/docs.google.com\/spreadsheets\/d\/1LzVrSE-t-iYMnSmiZtg8449rctjJ8Xn9l-nz9_t4H6k\/edit#gid=0&range=10:10"},{"time":"07:00","day":1,"name":"Sunlight of the Spirit","location":"Phone","types":["O","D"],"location_notes":"Dial (605) 313-5932 x400569","contact_1_email":"Ginny F","contact_1_phone":"215-593-9169","conference_phone":"(605) 313-5932 x400569","slug":"Sunlight-of-the-Spirit-Mon","edit_url":"https:\/\/docs.google.com\/spreadsheets\/d\/1LzVrSE-t-iYMnSmiZtg8449rctjJ8Xn9l-nz9_t4H6k\/edit#gid=0&range=11:11"},{"time":"08:30","day":1,"name":"Morning Serenity Group","location":"Triangle Stepping Stones","address":"3279 Lake Powell Rd, Williamsburg, VA 23185, USA","region":"Williamsburg","types":["O","D"],"timezone":"Amweica\/New_York","slug":"Morning-Serenity-Group-Mon","edit_url":"https:\/\/docs.google.com\/spreadsheets\/d\/1LzVrSE-t-iYMnSmiZtg8449rctjJ8Xn9l-nz9_t4H6k\/edit#gid=0&range=12:12"},{"time":"11:00","day":1,"name":"11th Step @ 11 (11@11)","location":"Common Ground","address":"5810-C Mooretown Road, Williamsburg, VA 23188, USA","region":"Williamsburg","types":["C","D"],"timezone":"Amweica\/New_York","conference_url":"https:\/\/us02web.zoom.us\/j\/87145623665?pwd=6kRRd1v0tKVaSaPGcvkLac8hIgCfOn.1","slug":"11th-Step-at-11","edit_url":"https:\/\/docs.google.com\/spreadsheets\/d\/1LzVrSE-t-iYMnSmiZtg8449rctjJ8Xn9l-nz9_t4H6k\/edit#gid=0&range=13:13"},{"time":"12:05","day":1,"name":"Williamsburg Lunchtime","location":"United Methodist Church","address":"500 Jamestown Rd, Williamsburg, VA 23185, USA","region":"Williamsburg","types":["O","LIT"],"timezone":"Amweica\/New_York","conference_url":"https:\/\/us02web.zoom.us\/j\/5313718920?pwd=elNwbVUxSkVEWFpUMmJvLzJUNnJzQT09","slug":"Williamsburg-Lunchtime-Mon","edit_url":"https:\/\/docs.google.com\/spreadsheets\/d\/1LzVrSE-t-iYMnSmiZtg8449rctjJ8Xn9l-nz9_t4H6k\/edit#gid=0&range=14:14"},{"time":"17:30","day":1,"name":"Happier Hour","location":"St. Martin's Episcopal Church","address":"1333 Jamestown Rd, Williamsburg, VA 23185, USA","region":"Williamsburg","types":["O","SP"],"timezone":"Amweica\/New_York","slug":"Happier-Hour-Mon","edit_url":"https:\/\/docs.google.com\/spreadsheets\/d\/1LzVrSE-t-iYMnSmiZtg8449rctjJ8Xn9l-nz9_t4H6k\/edit#gid=0&range=15:15"},{"time":"19:00","day":1,"name":"Original Williamsburg Monday Night","location":"Williamsburg United Methodist Church","address":"500 Jamestown Rd, Williamsburg, VA 23185, USA","region":"Williamsburg","types":["C","D"],"timezone":"Amweica\/New_York","slug":"Original-Williamsburg-Monday-Night","edit_url":"https:\/\/docs.google.com\/spreadsheets\/d\/1LzVrSE-t-iYMnSmiZtg8449rctjJ8Xn9l-nz9_t4H6k\/edit#gid=0&range=16:16"},{"time":"19:00","day":1,"name":"Ham & Eggs Group","location":"Surry United Methodist Church","address":"357 Colonial Trail E, Surry, VA 23883, USA","region":"Surry","types":["O","D"],"timezone":"Amweica\/New_York","slug":"Ham-and-Eggs-Group","edit_url":"https:\/\/docs.google.com\/spreadsheets\/d\/1LzVrSE-t-iYMnSmiZtg8449rctjJ8Xn9l-nz9_t4H6k\/edit#gid=0&range=17:17"},{"time":"19:00","day":1,"name":"Fresh Start","location":"Williamsburg Place","address":"5477 Mooretown Rd, Williamsburg, VA 23188, USA","region":"Williamsburg","types":["O","D","X"],"timezone":"Amweica\/New_York","slug":"Fresh-Start-Mon","edit_url":"https:\/\/docs.google.com\/spreadsheets\/d\/1LzVrSE-t-iYMnSmiZtg8449rctjJ8Xn9l-nz9_t4H6k\/edit#gid=0&range=18:18"},{"time":"19:00","day":1,"name":"Sacred Sobriety","location":"Triangle Stepping Stones","address":"3279 Lake Powell Rd, Williamsburg, VA 23185, USA","region":"Williamsburg","types":["O","LIT","W","X"],"timezone":"Amweica\/New_York","slug":"Sacred-Sobriety","edit_url":"https:\/\/docs.google.com\/spreadsheets\/d\/1LzVrSE-t-iYMnSmiZtg8449rctjJ8Xn9l-nz9_t4H6k\/edit#gid=0&range=19:19"},{"time":"20:05","day":1,"name":"Original Williamsburg Discussion Group","location":"Unitarian Church","address":"3051 Ironbound Road, Williamsburg, VA 23185, USA","region":"Williamsburg","types":["C","D"],"timezone":"Amweica\/New_York","slug":"Original-Williamsburg-Discussion-Group","edit_url":"https:\/\/docs.google.com\/spreadsheets\/d\/1LzVrSE-t-iYMnSmiZtg8449rctjJ8Xn9l-nz9_t4H6k\/edit#gid=0&range=20:20"},{"time":"07:00","day":2,"name":"Prayer & Meditation","location":"Bruton Parish Offices (2nd Floor)","address":"201 W Duke of Gloucester St, Williamsburg, VA 23185, USA","region":"Williamsburg","types":["O","D"],"timezone":"Amweica\/New_York","slug":"Prayer-and-Meditation-Tue","edit_url":"https:\/\/docs.google.com\/spreadsheets\/d\/1LzVrSE-t-iYMnSmiZtg8449rctjJ8Xn9l-nz9_t4H6k\/edit#gid=0&range=21:21"},{"time":"07:00","day":2,"name":"Sunlight of the Spirit","location":"Phone","types":["O","D"],"location_notes":"Dial (605) 313-5932 x400570","contact_1_email":"Ginny F","contact_1_phone":"215-593-9169","conference_phone":"(605) 313-5932 x400569","slug":"Sunlight-of-the-Spirit-Tue","edit_url":"https:\/\/docs.google.com\/spreadsheets\/d\/1LzVrSE-t-iYMnSmiZtg8449rctjJ8Xn9l-nz9_t4H6k\/edit#gid=0&range=22:22"},{"time":"08:30","day":2,"name":"Morning Serenity Group","location":"Triangle Stepping Stones","address":"3279 Lake Powell Rd, Williamsburg, VA 23185, USA","region":"Williamsburg","types":["O","D"],"timezone":"Amweica\/New_York","slug":"Morning-Serenity-Group-Tue","edit_url":"https:\/\/docs.google.com\/spreadsheets\/d\/1LzVrSE-t-iYMnSmiZtg8449rctjJ8Xn9l-nz9_t4H6k\/edit#gid=0&range=23:23"},{"time":"12:05","day":2,"name":"Williamsburg Lunchtime","location":"United Methodist Church","address":"500 Jamestown Rd, Williamsburg, VA 23185, USA","region":"Williamsburg","types":["O","D"],"timezone":"Amweica\/New_York","conference_url":"https:\/\/us02web.zoom.us\/j\/5313718920?pwd=elNwbVUxSkVEWFpUMmJvLzJUNnJzQT09","slug":"Williamsburg-Lunchtime-Tue","edit_url":"https:\/\/docs.google.com\/spreadsheets\/d\/1LzVrSE-t-iYMnSmiZtg8449rctjJ8Xn9l-nz9_t4H6k\/edit#gid=0&range=24:24"},{"time":"17:30","day":2,"name":"Happier Hour","location":"St. Martin's Episcopal Church","address":"1333 Jamestown Rd, Williamsburg, VA 23185, USA","region":"Williamsburg","types":["O","ST"],"timezone":"Amweica\/New_York","slug":"Happier-Hour-Tue","edit_url":"https:\/\/docs.google.com\/spreadsheets\/d\/1LzVrSE-t-iYMnSmiZtg8449rctjJ8Xn9l-nz9_t4H6k\/edit#gid=0&range=25:25"},{"time":"18:00","day":2,"name":"Warriors Anonymous Group","location":"Triangle Stepping Stones","address":"3279 Lake Powell Rd, Williamsburg, VA 23185, USA, USA","region":"Williamsburg","types":["C","D"],"timezone":"Amweica\/New_York","slug":"Warriors-Anonymous-Group","edit_url":"https:\/\/docs.google.com\/spreadsheets\/d\/1LzVrSE-t-iYMnSmiZtg8449rctjJ8Xn9l-nz9_t4H6k\/edit#gid=0&range=26:26"},{"time":"19:00","day":2,"name":"Norge Serenity Group","location":"Our Saviour\u201a\u00c4\u00f4s Lutheran Church","address":"7479 Richmond Rd, Williamsburg, VA 23188, USA","region":"Williamsburg","types":["O","D"],"timezone":"Amweica\/New_York","conference_url":"https:\/\/us02web.zoom.us\/j\/88318429205?pwd=WkpRSjQ2Zm9oUXl6N1lGaWh1YjdaUT09","slug":"Norge-Serenity-Group-Tue","edit_url":"https:\/\/docs.google.com\/spreadsheets\/d\/1LzVrSE-t-iYMnSmiZtg8449rctjJ8Xn9l-nz9_t4H6k\/edit#gid=0&range=27:27"},{"time":"19:00","day":2,"name":"Life On Life's Terms","location":"Spiritworks","address":"5800 Mooretown Rd, Williamsburg, VA 23188, USA","region":"Williamsburg","types":["O","D","W"],"timezone":"Amweica\/New_York","slug":"Life-On-Lifes-Terms","edit_url":"https:\/\/docs.google.com\/spreadsheets\/d\/1LzVrSE-t-iYMnSmiZtg8449rctjJ8Xn9l-nz9_t4H6k\/edit#gid=0&range=28:28"},{"time":"19:30","day":2,"name":"Easier Softer Way","location":"Triangle Stepping Stones","address":"3280 Lake Powell Rd, Williamsburg, VA 23185, USA","region":"Williamsburg","types":["O","LIT"],"timezone":"Amweica\/New_York","slug":"Easier-Softer-Way","edit_url":"https:\/\/docs.google.com\/spreadsheets\/d\/1LzVrSE-t-iYMnSmiZtg8449rctjJ8Xn9l-nz9_t4H6k\/edit#gid=0&range=29:29"},{"time":"20:00","day":2,"name":"Williamsburg Big Book","location":"Williamsburg Presbyterian Church","address":"215 Richmond Rd, Williamsburg, VA 23185, USA","region":"Williamsburg","types":["O","B"],"timezone":"Amweica\/New_York","slug":"Williamsburg-Big-Book","edit_url":"https:\/\/docs.google.com\/spreadsheets\/d\/1LzVrSE-t-iYMnSmiZtg8449rctjJ8Xn9l-nz9_t4H6k\/edit#gid=0&range=30:30"},{"time":"07:00","day":3,"name":"Prayer & Meditation","location":"Bruton Parish Offices (2nd Floor)","address":"201 W Duke of Gloucester St, Williamsburg, VA 23185, USA","region":"Williamsburg","types":["O","D"],"timezone":"Amweica\/New_York","slug":"Prayer-and-Meditation-Wed","edit_url":"https:\/\/docs.google.com\/spreadsheets\/d\/1LzVrSE-t-iYMnSmiZtg8449rctjJ8Xn9l-nz9_t4H6k\/edit#gid=0&range=31:31"},{"time":"07:00","day":3,"name":"Sunlight of the Spirit","location":"Phone","types":["O","D"],"location_notes":"Dial (605) 313-5932 x400571","contact_1_email":"Ginny F","contact_1_phone":"215-593-9169","conference_phone":"(605) 313-5932 x400569","slug":"Sunlight-of-the-Spirit-Wed","edit_url":"https:\/\/docs.google.com\/spreadsheets\/d\/1LzVrSE-t-iYMnSmiZtg8449rctjJ8Xn9l-nz9_t4H6k\/edit#gid=0&range=32:32"},{"time":"08:30","day":3,"name":"Morning Serenity Group","location":"Triangle Stepping Stones","address":"3279 Lake Powell Rd, Williamsburg, VA 23185, USA","region":"Williamsburg","types":["O","LIT"],"timezone":"Amweica\/New_York","slug":"Morning-Serenity-Group-Wed","edit_url":"https:\/\/docs.google.com\/spreadsheets\/d\/1LzVrSE-t-iYMnSmiZtg8449rctjJ8Xn9l-nz9_t4H6k\/edit#gid=0&range=33:33"},{"time":"12:05","day":3,"name":"Williamsburg Lunchtime","location":"United Methodist Church","address":"500 Jamestown Rd, Williamsburg, VA 23185, USA","region":"Williamsburg","types":["O","LIT"],"timezone":"Amweica\/New_York","conference_url":"https:\/\/us02web.zoom.us\/j\/5313718920?pwd=elNwbVUxSkVEWFpUMmJvLzJUNnJzQT09","slug":"Williamsburg-Lunchtime-Wed","edit_url":"https:\/\/docs.google.com\/spreadsheets\/d\/1LzVrSE-t-iYMnSmiZtg8449rctjJ8Xn9l-nz9_t4H6k\/edit#gid=0&range=34:34"},{"time":"17:30","day":3,"name":"Happier Hour","location":"St. Martin's Episcopal Church","address":"1333 Jamestown Rd, Williamsburg, VA 23185, USA","region":"Williamsburg","types":["O","D"],"timezone":"Amweica\/New_York","slug":"Happier-Hour-Wed","edit_url":"https:\/\/docs.google.com\/spreadsheets\/d\/1LzVrSE-t-iYMnSmiZtg8449rctjJ8Xn9l-nz9_t4H6k\/edit#gid=0&range=35:35"},{"time":"19:00","day":3,"name":"Fresh Start","location":"Williamsburg Place","address":"5477 Mooretown Rd, Williamsburg, VA 23188, USA","region":"Williamsburg","types":["O","SP","X"],"timezone":"Amweica\/New_York","slug":"Fresh-Start-Wed","edit_url":"https:\/\/docs.google.com\/spreadsheets\/d\/1LzVrSE-t-iYMnSmiZtg8449rctjJ8Xn9l-nz9_t4H6k\/edit#gid=0&range=36:36"},{"time":"20:00","day":3,"name":"Williamsburg 12 & 12","location":"St Stephen Lutheran Church","address":"612 Jamestown Rd, Williamsburg, VA 23185, USA","region":"Williamsburg","types":["O"],"timezone":"Amweica\/New_York","slug":"Williamsburg-12-and-12","edit_url":"https:\/\/docs.google.com\/spreadsheets\/d\/1LzVrSE-t-iYMnSmiZtg8449rctjJ8Xn9l-nz9_t4H6k\/edit#gid=0&range=37:37"},{"time":"07:00","day":4,"name":"Prayer & Meditation","location":"Bruton Parish Offices (2nd Floor)","address":"201 W Duke of Gloucester St, Williamsburg, VA 23185, USA","region":"Williamsburg","types":["O","D"],"timezone":"Amweica\/New_York","slug":"Prayer-and-Meditation-Thu","edit_url":"https:\/\/docs.google.com\/spreadsheets\/d\/1LzVrSE-t-iYMnSmiZtg8449rctjJ8Xn9l-nz9_t4H6k\/edit#gid=0&range=38:38"},{"time":"07:00","day":4,"name":"Sunlight of the Spirit","location":"Phone","types":["O","D"],"location_notes":"Dial (605) 313-5932 x400572","contact_1_email":"Ginny F","contact_1_phone":"215-593-9169","conference_phone":"(605) 313-5932 x400569","slug":"Sunlight-of-the-Spirit-Thu","edit_url":"https:\/\/docs.google.com\/spreadsheets\/d\/1LzVrSE-t-iYMnSmiZtg8449rctjJ8Xn9l-nz9_t4H6k\/edit#gid=0&range=39:39"},{"time":"08:30","day":4,"name":"Morning Serenity Group","location":"Triangle Stepping Stones","address":"3279 Lake Powell Rd, Williamsburg, VA 23185, USA","region":"Williamsburg","types":["O","D"],"timezone":"Amweica\/New_York","slug":"Morning-Serenity-Group-Thu","edit_url":"https:\/\/docs.google.com\/spreadsheets\/d\/1LzVrSE-t-iYMnSmiZtg8449rctjJ8Xn9l-nz9_t4H6k\/edit#gid=0&range=40:40"},{"time":"12:00","day":4,"name":"Thursday Noon Men\u201a\u00c4\u00f4s Meeting","location":"Triangle Stepping Stones","address":"3279 Lake Powell Rd, Williamsburg, VA 23185, USA","region":"Williamsburg","types":["C","D","M"],"timezone":"Amweica\/New_York","slug":"Thursday-Noon-Men\u201a\u00c4\u00f4s-Meeting","edit_url":"https:\/\/docs.google.com\/spreadsheets\/d\/1LzVrSE-t-iYMnSmiZtg8449rctjJ8Xn9l-nz9_t4H6k\/edit#gid=0&range=41:41"},{"time":"12:00","day":4,"name":"Thursday Noon Women's Meeting","location":"Walnut Hills Baptist Church","address":"1014 Jamestown Rd, Williamsburg, VA 23185, USA","region":"Williamsburg","types":["C","D","W"],"timezone":"Amweica\/New_York","slug":"Thursday-Noon-Women's-Meeting","edit_url":"https:\/\/docs.google.com\/spreadsheets\/d\/1LzVrSE-t-iYMnSmiZtg8449rctjJ8Xn9l-nz9_t4H6k\/edit#gid=0&range=42:42"},{"time":"12:00","day":4,"name":"Thursday On-Line Noon Women's Meeting","location":"Zoom","types":["C","D","W"],"timezone":"Amweica\/New_York","conference_url":"https:\/\/us02web.zoom.us\/j\/88374789970?pwd=2zP1HCmbM7BcQl7m2U5udfmw6BB07d.1","slug":"Thursday-On-Line-Noon-Women-Meeting","edit_url":"https:\/\/docs.google.com\/spreadsheets\/d\/1LzVrSE-t-iYMnSmiZtg8449rctjJ8Xn9l-nz9_t4H6k\/edit#gid=0&range=43:43"},{"time":"12:05","day":4,"name":"Williamsburg Lunchtime","location":"United Methodist Church","address":"500 Jamestown Rd, Williamsburg, VA 23185, USA","region":"Williamsburg","types":["O","D"],"timezone":"Amweica\/New_York","slug":"Williamsburg-Lunchtime-Thu","edit_url":"https:\/\/docs.google.com\/spreadsheets\/d\/1LzVrSE-t-iYMnSmiZtg8449rctjJ8Xn9l-nz9_t4H6k\/edit#gid=0&range=44:44"},{"time":"17:30","day":4,"name":"Happier Hour","location":"St. Martin's Episcopal Church","address":"1333 Jamestown Rd, Williamsburg, VA 23185, USA","region":"Williamsburg","types":["O","B"],"timezone":"Amweica\/New_York","slug":"Happier-Hour-Thu","edit_url":"https:\/\/docs.google.com\/spreadsheets\/d\/1LzVrSE-t-iYMnSmiZtg8449rctjJ8Xn9l-nz9_t4H6k\/edit#gid=0&range=45:45"},{"time":"19:00","day":4,"name":"Peace and Serenity","location":"Triangle Stepping Stones","address":"3279 Lake Powell Rd, Williamsburg, VA 23185, USA","region":"Williamsburg","types":["O","D","SP","LGBTQ"],"timezone":"Amweica\/New_York","slug":"Peace-and-Serenity","edit_url":"https:\/\/docs.google.com\/spreadsheets\/d\/1LzVrSE-t-iYMnSmiZtg8449rctjJ8Xn9l-nz9_t4H6k\/edit#gid=0&range=46:46"},{"time":"19:00","day":4,"name":"Primary Purpose","location":"Williamsburg Baptist Church","address":"227 Richmond Rd, Williamsburg, VA 23185, USA","region":"Williamsburg","types":["O","ST"],"timezone":"Amweica\/New_York","slug":"Primary-Purpose-Thu","edit_url":"https:\/\/docs.google.com\/spreadsheets\/d\/1LzVrSE-t-iYMnSmiZtg8449rctjJ8Xn9l-nz9_t4H6k\/edit#gid=0&range=47:47"},{"time":"07:00","day":5,"name":"Prayer & Meditation","location":"Bruton Parish Offices (2nd Floor)","address":"201 W Duke of Gloucester St, Williamsburg, VA 23185, USA","region":"Williamsburg","types":["O","D"],"timezone":"Amweica\/New_York","slug":"Prayer-and-Meditation-Fri","edit_url":"https:\/\/docs.google.com\/spreadsheets\/d\/1LzVrSE-t-iYMnSmiZtg8449rctjJ8Xn9l-nz9_t4H6k\/edit#gid=0&range=48:48"},{"time":"07:00","day":5,"name":"Sunlight of the Spirit","location":"Phone","types":["O","D"],"location_notes":"Dial (605) 313-5932 x400573","contact_1_email":"Ginny F","contact_1_phone":"215-593-9169","conference_phone":"(605) 313-5932 x400569","slug":"Sunlight-of-the-Spirit-Fri","edit_url":"https:\/\/docs.google.com\/spreadsheets\/d\/1LzVrSE-t-iYMnSmiZtg8449rctjJ8Xn9l-nz9_t4H6k\/edit#gid=0&range=49:49"},{"time":"08:30","day":5,"name":"Morning Serenity Group","location":"Triangle Stepping Stones","address":"3279 Lake Powell Rd, Williamsburg, VA 23185, USA","region":"Williamsburg","types":["O","B"],"timezone":"Amweica\/New_York","slug":"Morning-Serenity-Group-Fri","edit_url":"https:\/\/docs.google.com\/spreadsheets\/d\/1LzVrSE-t-iYMnSmiZtg8449rctjJ8Xn9l-nz9_t4H6k\/edit#gid=0&range=50:50"},{"time":"10:00","day":5,"name":"Women's Step","location":"Walnut Hills Baptist Church","address":"1014 Jamestown Rd, Williamsburg, VA 23185, USA","region":"Williamsburg","types":["C","W"],"timezone":"Amweica\/New_York","slug":"Womens-Step","edit_url":"https:\/\/docs.google.com\/spreadsheets\/d\/1LzVrSE-t-iYMnSmiZtg8449rctjJ8Xn9l-nz9_t4H6k\/edit#gid=0&range=51:51"},{"time":"12:05","day":5,"name":"Williamsburg Lunchtime","location":"United Methodist Church","address":"500 Jamestown Rd, Williamsburg, VA 23185, USA","region":"Williamsburg","types":["O","B"],"timezone":"Amweica\/New_York","conference_url":"https:\/\/us02web.zoom.us\/j\/5313718920?pwd=elNwbVUxSkVEWFpUMmJvLzJUNnJzQT09","slug":"Williamsburg-Lunchtime-Fri","edit_url":"https:\/\/docs.google.com\/spreadsheets\/d\/1LzVrSE-t-iYMnSmiZtg8449rctjJ8Xn9l-nz9_t4H6k\/edit#gid=0&range=52:52"},{"time":"17:30","day":5,"name":"Happier Hour","location":"St. Martin's Episcopal Church","address":"1333 Jamestown Rd, Williamsburg, VA 23185, USA","region":"Williamsburg","types":["O","BE"],"timezone":"Amweica\/New_York","slug":"Happier-Hour-Fri","edit_url":"https:\/\/docs.google.com\/spreadsheets\/d\/1LzVrSE-t-iYMnSmiZtg8449rctjJ8Xn9l-nz9_t4H6k\/edit#gid=0&range=53:53"},{"time":"18:30","day":5,"name":"Toano Welcomes Change","location":"Lifepointe Christian Church","address":"8841 Richmond Rd, Toano, VA 23168, USA","region":"Toano","types":["O","B"],"timezone":"Amweica\/New_York","slug":"Toano-Welcomes-Change","edit_url":"https:\/\/docs.google.com\/spreadsheets\/d\/1LzVrSE-t-iYMnSmiZtg8449rctjJ8Xn9l-nz9_t4H6k\/edit#gid=0&range=54:54"},{"time":"19:00","day":5,"name":"Growth & Maintenance","location":"Grace Baptist Church","address":"1013 Penniman Rd, Williamsburg, VA 23185, USA","region":"Williamsburg","types":["O","D"],"timezone":"Amweica\/New_York","slug":"Growth-and-Maintenance","edit_url":"https:\/\/docs.google.com\/spreadsheets\/d\/1LzVrSE-t-iYMnSmiZtg8449rctjJ8Xn9l-nz9_t4H6k\/edit#gid=0&range=55:55"},{"time":"19:00","day":5,"name":"Leader's Choice","location":"Wellspring United Methodist Church","address":"4871 Longhill Rd, Williamsburg, VA 23188, USA","region":"Williamsburg","types":["O","D","LIT"],"timezone":"Amweica\/New_York","slug":"Leaders-Choice","edit_url":"https:\/\/docs.google.com\/spreadsheets\/d\/1LzVrSE-t-iYMnSmiZtg8449rctjJ8Xn9l-nz9_t4H6k\/edit#gid=0&range=56:56"},{"time":"20:00","day":5,"name":"Friday Beginners Meeting","location":"Triangle Stepping Stones","address":"3279 Lake Powell Rd, Williamsburg, VA 23185, USA","region":"Williamsburg","types":["O","D"],"timezone":"Amweica\/New_York","slug":"Friday-Beginners-Meeting","edit_url":"https:\/\/docs.google.com\/spreadsheets\/d\/1LzVrSE-t-iYMnSmiZtg8449rctjJ8Xn9l-nz9_t4H6k\/edit#gid=0&range=57:57"},{"time":"20:00","day":5,"name":"Any Lengths","location":"Williamsburg Baptist Church","address":"227 Richmond Rd, Williamsburg, VA 23185, USA","region":"Williamsburg","types":["O","D"],"timezone":"Amweica\/New_York","slug":"Any-Lengths-Fri","edit_url":"https:\/\/docs.google.com\/spreadsheets\/d\/1LzVrSE-t-iYMnSmiZtg8449rctjJ8Xn9l-nz9_t4H6k\/edit#gid=0&range=58:58"},{"time":"21:30","day":5,"name":"Young & Sober","location":"Triangle Stepping Stones","address":"3279 Lake Powell Rd, Williamsburg, VA 23185, USA","region":"Williamsburg","types":["O","D"],"timezone":"Amweica\/New_York","slug":"Young-and-Sober","edit_url":"https:\/\/docs.google.com\/spreadsheets\/d\/1LzVrSE-t-iYMnSmiZtg8449rctjJ8Xn9l-nz9_t4H6k\/edit#gid=0&range=59:59"},{"time":"07:00","day":6,"name":"Sunlight of the Spirit","location":"Phone","types":["O","D"],"location_notes":"Dial (605) 313-5932 x400574","contact_1_email":"Ginny F","contact_1_phone":"215-593-9169","conference_phone":"(605) 313-5932 x400569","slug":"Sunlight-of-the-Spirit-Sat","edit_url":"https:\/\/docs.google.com\/spreadsheets\/d\/1LzVrSE-t-iYMnSmiZtg8449rctjJ8Xn9l-nz9_t4H6k\/edit#gid=0&range=60:60"},{"time":"08:00","day":6,"name":"Early Bird","location":"Williamsburg House of Mercy","address":"10 Harrison Ave, Williamsburg, VA 23185, USA, USA","region":"Williamsburg","types":["O","D","X"],"timezone":"Amweica\/New_York","slug":"Early-Bird","edit_url":"https:\/\/docs.google.com\/spreadsheets\/d\/1LzVrSE-t-iYMnSmiZtg8449rctjJ8Xn9l-nz9_t4H6k\/edit#gid=0&range=61:61"},{"time":"08:30","day":6,"name":"Morning Serenity Group","location":"Triangle Stepping Stones","address":"3279 Lake Powell Rd, Williamsburg, VA 23185, USA","region":"Williamsburg","types":["O","D"],"timezone":"Amweica\/New_York","slug":"Morning-Serenity-Group-Sat","edit_url":"https:\/\/docs.google.com\/spreadsheets\/d\/1LzVrSE-t-iYMnSmiZtg8449rctjJ8Xn9l-nz9_t4H6k\/edit#gid=0&range=62:62"},{"time":"10:00","day":6,"name":"Williamsburg Men's","location":"Triangle Stepping Stones","address":"3279 Lake Powell Rd, Williamsburg, VA 23185, USA","region":"Williamsburg","types":["C","D"],"timezone":"Amweica\/New_York","slug":"Williamsburg-Men's","edit_url":"https:\/\/docs.google.com\/spreadsheets\/d\/1LzVrSE-t-iYMnSmiZtg8449rctjJ8Xn9l-nz9_t4H6k\/edit#gid=0&range=63:63"},{"time":"17:30","day":6,"name":"Room To Grow","location":"St Stephen Lutheran Church","address":"612 Jamestown Rd, Williamsburg, VA 23185, USA","region":"Williamsburg","types":["O","D","X"],"timezone":"Amweica\/New_York","conference_url":"https:\/\/us02web.zoom.us\/j\/8048961667?pwd=OTBkWTZXbFU2NC9DbXZXK202UVhwQT09","slug":"Room-To-Grow","edit_url":"https:\/\/docs.google.com\/spreadsheets\/d\/1LzVrSE-t-iYMnSmiZtg8449rctjJ8Xn9l-nz9_t4H6k\/edit#gid=0&range=64:64"},{"time":"18:30","day":6,"name":"Original Williamsburg Group","location":"Triangle Stepping Stones","address":"3279 Lake Powell Rd, Williamsburg, VA 23185, USA","region":"Williamsburg","types":["C","D"],"timezone":"Amweica\/New_York","slug":"Original-Williamsburg-Group","edit_url":"https:\/\/docs.google.com\/spreadsheets\/d\/1LzVrSE-t-iYMnSmiZtg8449rctjJ8Xn9l-nz9_t4H6k\/edit#gid=0&range=65:65"},{"time":"20:00","day":6,"name":"Primary Purpose","location":"Eastern State","address":"4601 Ironbound Rd, Williamsburg, VA 23188, USA","region":"Williamsburg","types":["O","D"],"timezone":"Amweica\/New_York","slug":"Primary-Purpose-Sat","edit_url":"https:\/\/docs.google.com\/spreadsheets\/d\/1LzVrSE-t-iYMnSmiZtg8449rctjJ8Xn9l-nz9_t4H6k\/edit#gid=0&range=66:66"},{"time":"22:00","day":6,"name":"Rule 62","location":"Triangle Stepping Stones","address":"3279 Lake Powell Rd, Williamsburg, VA 23185, USA","region":"Williamsburg","types":["O","SP"],"timezone":"Amweica\/New_York","slug":"Rule-62","edit_url":"https:\/\/docs.google.com\/spreadsheets\/d\/1LzVrSE-t-iYMnSmiZtg8449rctjJ8Xn9l-nz9_t4H6k\/edit#gid=0&range=67:67"}]